{
  "regions": [
    { "id": "greater_accra", "name": "Greater Accra", "capital": "Accra", "tier": "metro" },
    { "id": "ashanti", "name": "Ashanti", "capital": "Kumasi", "tier": "metro" },
    { "id": "central", "name": "Central", "capital": "Cape Coast", "tier": "urban" },
    { "id": "eastern", "name": "Eastern", "capital": "Koforidua", "tier": "urban" },
    { "id": "western", "name": "Western", "capital": "Sekondi-Takoradi", "tier": "urban" },
    { "id": "western_north", "name": "Western North", "capital": "Sefwi Wiawso", "tier": "rural" },
    { "id": "volta", "name": "Volta", "capital": "Ho", "tier": "urban" },
    { "id": "oti", "name": "Oti", "capital": "Dambai", "tier": "rural" },
    { "id": "northern", "name": "Northern", "capital": "Tamale", "tier": "urban" },
    { "id": "savannah", "name": "Savannah", "capital": "Damongo", "tier": "rural" },
    { "id": "north_east", "name": "North East", "capital": "Nalerigu", "tier": "rural" },
    { "id": "upper_east", "name": "Upper East", "capital": "Bolgatanga", "tier": "rural" },
    { "id": "upper_west", "name": "Upper West", "capital": "Wa", "tier": "rural" },
    { "id": "bono", "name": "Bono", "capital": "Sunyani", "tier": "urban" },
    { "id": "bono_east", "name": "Bono East", "capital": "Techiman", "tier": "urban" },
    { "id": "ahafo", "name": "Ahafo", "capital": "Goaso", "tier": "rural" }
  ],
  "landmarks": [
    { "id": "ga_market_1", "name": "Makola Market", "category": "market", "regionId": "greater_accra", "city": "Accra", "lat": 5.5533, "lng": -0.2064 },
    { "id": "ga_junction_1", "name": "Kwame Nkrumah Circle", "category": "junction", "regionId": "greater_accra", "city": "Accra", "lat": 5.5677, "lng": -0.2111 },
    { "id": "ga_mall_1", "name": "Accra Mall", "category": "mall", "regionId": "greater_accra", "city": "Accra", "lat": 5.6140, "lng": -0.1775 },
    { "id": "ga_hospital_1", "name": "Korle Bu Teaching Hospital", "category": "hospital", "regionId": "greater_accra", "city": "Accra", "lat": 5.5538, "lng": -0.2243 },
    { "id": "ga_station_1", "name": "Kaneshie Lorry Station", "category": "lorry_station", "regionId": "greater_accra", "city": "Accra", "lat": 5.5947, "lng": -0.2358 },
    { "id": "ga_school_1", "name": "University of Ghana", "category": "school", "regionId": "greater_accra", "city": "Accra", "lat": 5.6502, "lng": -0.1863 },
    { "id": "ga_gov_1", "name": "Ministry of Transport", "category": "government", "regionId": "greater_accra", "city": "Accra", "lat": 5.5577, "lng": -0.2019 },
    { "id": "as_market_1", "name": "Kejetia Market", "category": "market", "regionId": "ashanti", "city": "Kumasi", "lat": 6.6873, "lng": -1.6244 },
    { "id": "as_junction_1", "name": "Adum Junction", "category": "junction", "regionId": "ashanti", "city": "Kumasi", "lat": 6.6940, "lng": -1.6225 },
    { "id": "as_mall_1", "name": "Kumasi City Mall", "category": "mall", "regionId": "ashanti", "city": "Kumasi", "lat": 6.6738, "lng": -1.5754 },
    { "id": "as_hospital_1", "name": "Komfo Anokye Teaching Hospital", "category": "hospital", "regionId": "ashanti", "city": "Kumasi", "lat": 6.6915, "lng": -1.6259 },
    { "id": "as_station_1", "name": "Asafo Lorry Station", "category": "lorry_station", "regionId": "ashanti", "city": "Kumasi", "lat": 6.6887, "lng": -1.6201 },
    { "id": "as_church_1", "name": "St. Peter's Cathedral Basilica", "category": "church", "regionId": "ashanti", "city": "Kumasi", "lat": 6.6896, "lng": -1.6240 },
    { "id": "central_market_1", "name": "Kotokraba Market", "category": "market", "regionId": "central", "city": "Cape Coast", "lat": 5.1053, "lng": -1.2466 },
    { "id": "central_hospital_1", "name": "Cape Coast Teaching Hospital", "category": "hospital", "regionId": "central", "city": "Cape Coast", "lat": 5.1080, "lng": -1.2460 },
    { "id": "central_school_1", "name": "University of Cape Coast", "category": "school", "regionId": "central", "city": "Cape Coast", "lat": 5.1152, "lng": -1.2915 },
    { "id": "eastern_market_1", "name": "Koforidua Market", "category": "market", "regionId": "eastern", "city": "Koforidua", "lat": 6.0933, "lng": -0.2591 },
    { "id": "eastern_hospital_1", "name": "Eastern Regional Hospital", "category": "hospital", "regionId": "eastern", "city": "Koforidua", "lat": 6.0948, "lng": -0.2582 },
    { "id": "western_market_1", "name": "Takoradi Market Circle", "category": "market", "regionId": "western", "city": "Sekondi-Takoradi", "lat": 4.9049, "lng": -1.7562 },
    { "id": "western_mall_1", "name": "Takoradi Mall", "category": "mall", "regionId": "western", "city": "Sekondi-Takoradi", "lat": 4.9040, "lng": -1.7470 },
    { "id": "volta_market_1", "name": "Ho Main Market", "category": "market", "regionId": "volta", "city": "Ho", "lat": 6.6005, "lng": 0.4712 },
    { "id": "volta_hospital_1", "name": "Ho Teaching Hospital", "category": "hospital", "regionId": "volta", "city": "Ho", "lat": 6.6060, "lng": 0.4718 },
    { "id": "northern_market_1", "name": "Tamale Central Market", "category": "market", "regionId": "northern", "city": "Tamale", "lat": 9.4035, "lng": -0.8346 },
    { "id": "northern_school_1", "name": "University for Development Studies", "category": "school", "regionId": "northern", "city": "Tamale", "lat": 9.4015, "lng": -0.8429 },
    { "id": "upper_east_market_1", "name": "Bolgatanga Market", "category": "market", "regionId": "upper_east", "city": "Bolgatanga", "lat": 10.7850, "lng": -0.8514 },
    { "id": "upper_west_market_1", "name": "Wa Market", "category": "market", "regionId": "upper_west", "city": "Wa", "lat": 10.0601, "lng": -2.5058 },
    { "id": "bono_market_1", "name": "Sunyani Market", "category": "market", "regionId": "bono", "city": "Sunyani", "lat": 7.3399, "lng": -2.3268 },
    { "id": "bono_east_market_1", "name": "Techiman Market", "category": "market", "regionId": "bono_east", "city": "Techiman", "lat": 7.5896, "lng": -1.9372 },
    { "id": "ahafo_hospital_1", "name": "Goaso Municipal Hospital", "category": "hospital", "regionId": "ahafo", "city": "Goaso", "lat": 6.8035, "lng": -2.5189 },
    { "id": "western_north_gov_1", "name": "Sefwi Wiawso Municipal Assembly", "category": "government", "regionId": "western_north", "city": "Sefwi Wiawso", "lat": 6.2057, "lng": -2.4897 },
    { "id": "oti_station_1", "name": "Dambai Lorry Station", "category": "lorry_station", "regionId": "oti", "city": "Dambai", "lat": 8.0662, "lng": 0.1760 },
    { "id": "savannah_hospital_1", "name": "Damongo Hospital", "category": "hospital", "regionId": "savannah", "city": "Damongo", "lat": 9.0824, "lng": -1.8256 },
    { "id": "north_east_school_1", "name": "Nalerigu Senior High", "category": "school", "regionId": "north_east", "city": "Nalerigu", "lat": 10.5278, "lng": -0.3706 }
  ]
}
